City,Max Temperature,Latitude,Longitude,Humidity,Cloud %,Wind Speed,Country
poum,70.41,-20.2333,164.0167,71,99,9.78,NC
alofi,78.69,-19.0595,-169.9187,61,28,11.5,NU
kapaa,86.32,22.0752,-159.319,72,20,5.01,US
hilo,82.13,19.7297,-155.09,75,40,11.5,US
ushuaia,31.66,-54.8,-68.3,100,90,33.38,AR
castro,53.26,-24.7911,-50.0119,83,6,4.52,BR
ossora,53.74,59.2353,163.0719,80,100,13.4,RU
lebu,47.35,-37.6167,-73.65,74,99,19.55,CL
punta arenas,35.71,-53.15,-70.9167,80,0,25.32,CL
sao joao da barra,67.73,-21.6403,-41.0511,80,77,11.7,BR
chuy,61.29,-33.6971,-53.4616,90,6,6.53,UY
bredasdorp,51.12,-34.5322,20.0403,93,79,4.61,ZA
vallenar,49.21,-28.5708,-70.7581,84,38,4.61,CL
cabo san lucas,89.19,22.8909,-109.9124,65,40,11.5,MX
chokurdakh,66.02,70.6333,147.9167,30,9,10.36,RU
puerto ayora,69.55,-0.7393,-90.3518,89,97,7.0,EC
sao francisco de paula,58.05,-29.4481,-50.5836,83,0,5.5,BR
nishihara,82.06,26.1842,127.7558,97,90,21.85,JP
bukama,69.04,-9.2,25.85,31,68,3.31,CD
arraial do cabo,67.86,-22.9661,-42.0278,77,0,13.8,BR
busselton,59.04,-33.65,115.3333,88,70,7.07,AU
waitati,45.81,-45.75,170.5667,59,100,9.4,NZ
hobart,48.25,-42.8794,147.3294,65,0,3.0,AU
severnyy,66.24,50.677,36.5532,88,0,8.95,RU
port alfred,59.04,-33.5906,26.891,66,79,9.42,ZA
carutapera,75.15,-1.195,-46.02,90,11,3.18,BR
samarai,78.12,-10.6167,150.6667,85,90,15.59,PG
albany,75.07,42.6001,-73.9662,87,100,2.89,US
husavik,51.71,66.0449,-17.3389,77,97,2.66,IS
komsomolskiy,75.92,40.4272,71.7189,41,100,6.91,UZ
trat,81.68,12.5,102.5,86,100,2.73,TH
vaini,75.36,-21.2,-175.2,69,40,5.75,TO
lompoc,81.01,34.6391,-120.4579,80,1,13.8,US
bambous virieux,68.25,-20.3428,57.7575,94,75,9.22,MU
mataura,38.48,-46.1927,168.8643,94,100,2.37,NZ
lavrentiya,48.02,65.5833,-171.0,70,87,20.45,RU
tottori,89.6,35.5,134.2333,79,20,3.44,JP
lasa,62.06,46.6166,10.7002,97,75,2.28,IT
saint leonard,69.4,47.173,-67.9247,98,92,3.58,CA
bluff,38.8,-46.6,168.3333,84,100,7.49,NZ
bousso,72.63,10.4795,16.7117,94,99,7.34,TD
paita,65.62,-5.0892,-81.1144,78,12,18.81,PE
hithadhoo,82.15,-0.6,73.0833,70,100,3.49,MV
srednekolymsk,61.86,67.45,153.6833,48,0,3.04,RU
barcelos,59.85,41.5388,-8.6151,93,4,4.9,PT
east london,58.19,-33.0153,27.9116,61,72,9.93,ZA
kaitangata,44.67,-46.2817,169.8464,54,100,8.03,NZ
olivenza,64.2,38.6832,-7.103,80,0,4.5,ES
eenhana,55.15,-17.4667,16.3333,24,0,6.29,NA
kilinochchi,77.85,9.3961,80.3982,88,93,8.77,LK
bethel,76.08,41.3712,-73.414,76,1,0.0,US
baculin,79.48,7.4525,126.5842,82,100,7.43,PH
hermanus,47.89,-34.4187,19.2345,67,85,4.47,ZA
college,62.55,64.8569,-147.8028,83,75,0.0,US
mar del plata,50.02,-38.0023,-57.5575,71,0,9.22,AR
asau,58.95,46.4333,26.4,83,13,4.0,RO
podor,84.02,16.6527,-14.9587,65,16,16.78,MR
clyde river,39.43,70.4692,-68.5914,100,90,4.61,CA
bossangoa,68.02,6.4926,17.4552,97,100,2.95,CF
rikitea,74.61,-23.1203,-134.9692,77,1,13.69,PF
vasai,80.69,19.47,72.8,81,50,5.44,IN
belyy yar,62.49,53.6039,91.3903,88,0,2.24,RU
brownwood,92.52,31.7093,-98.9912,37,88,20.8,US
avarua,78.85,-21.2078,-159.775,65,14,6.91,CK
butaritari,82.89,3.0707,172.7902,64,24,13.27,KI
katsuura,78.91,35.1333,140.3,95,100,30.06,JP
jining,82.63,35.405,116.5814,75,5,1.68,CN
nanortalik,46.18,60.1432,-45.2371,91,100,15.21,GL
kiruna,45.52,67.8557,20.2251,81,55,3.44,SE
tiksi,50.88,71.6872,128.8694,67,21,4.7,RU
north bend,75.24,43.4065,-124.2243,83,90,11.5,US
sztum,65.34,53.9208,19.0307,75,100,7.76,PL
leh,60.01,34.1667,77.5833,56,16,5.23,IN
mogadishu,75.9,2.0371,45.3438,85,99,17.96,SO
atuona,77.65,-9.8,-139.0333,79,19,13.47,PF
hasaki,79.2,35.7333,140.8333,97,100,28.32,JP
cape town,50.41,-33.9258,18.4232,100,90,3.44,ZA
ahipara,59.27,-35.1667,173.1667,75,93,17.0,NZ
cidreira,60.67,-30.1811,-50.2056,91,0,11.74,BR
manicore,76.95,-5.8092,-61.3003,94,57,0.0,BR
hammerfest,63.05,70.6634,23.6821,51,40,1.14,NO
sorland,59.95,67.667,12.6934,63,87,15.93,NO
marsa matruh,79.0,31.3525,27.2453,89,75,6.91,EG
jamestown,73.04,42.097,-79.2353,81,40,1.01,US
grand bank,62.6,47.0999,-55.765,96,100,11.48,CA
saint george,98.64,37.1041,-113.5841,8,1,1.01,US
shibetsu,63.3,43.659,145.132,100,75,16.11,JP
tura,74.43,25.5198,90.2201,99,100,5.64,IN
nizhniy kuranakh,71.58,58.8353,125.4869,59,11,8.01,RU
vila franca do campo,68.41,37.7167,-25.4333,79,31,5.82,PT
kavieng,83.25,-2.5744,150.7967,75,98,13.13,PG
atar,87.28,20.5169,-13.0499,41,13,12.55,MR
constitucion,49.33,-35.3333,-72.4167,74,100,6.33,CL
carnarvon,69.87,-24.8667,113.6333,83,40,6.91,AU
codrington,53.46,-38.2667,141.9667,71,100,7.45,AU
nikolskoye,65.01,59.7035,30.7861,99,93,4.16,RU
new norfolk,47.91,-42.7826,147.0587,42,71,3.89,AU
provideniya,46.35,64.3833,-173.3,77,100,7.38,RU
upernavik,40.26,72.7868,-56.1549,95,77,9.13,GL
port moresby,81.82,-9.4431,147.1797,74,40,11.5,PG
shush,96.85,32.1942,48.2436,19,0,6.51,IR
faanui,78.31,-16.4833,-151.75,73,81,7.47,PF
verkhoyansk,76.91,67.5447,133.385,28,6,5.39,RU
the valley,82.81,18.217,-63.0578,76,0,16.51,AI
georgetown,84.13,5.4112,100.3354,82,20,1.99,MY
key west,84.2,24.5557,-81.7826,74,1,6.91,US
firminopolis,69.48,-16.5819,-50.305,45,65,6.53,BR
yellowknife,61.32,62.456,-114.3525,51,40,21.85,CA
ucluelet,67.08,48.9329,-125.5528,82,31,15.9,CA
fortuna,88.48,40.5982,-124.1573,61,1,7.0,US
luganville,78.49,-15.5333,167.1667,80,100,12.77,VU
garissa,71.65,-0.4536,39.6401,78,99,14.7,KE
linguere,80.46,15.3953,-15.1193,74,28,10.36,SN
saint-philippe,69.35,-21.3585,55.7679,81,51,12.48,RE
zhigansk,68.18,66.7697,123.3711,39,96,22.68,RU
longyearbyen,43.03,78.2186,15.6401,94,100,5.77,SJ
karratha,75.06,-20.7377,116.8463,33,21,12.17,AU
sao filipe,78.12,14.8961,-24.4956,85,70,8.37,CV
pskov,60.71,57.8136,28.3496,88,20,4.47,RU
dabat,52.38,12.9842,37.765,81,45,0.58,ET
dikson,48.54,73.5069,80.5464,69,7,8.3,RU
oakdale,71.31,44.963,-92.9649,91,90,7.0,US
port lincoln,57.06,-34.7333,135.8667,62,61,11.63,AU
vestmannaeyjar,54.39,63.4427,-20.2734,88,100,6.67,IS
qaanaaq,41.43,77.484,-69.3632,82,98,0.72,GL
praia da vitoria,73.65,38.7333,-27.0667,64,40,8.57,PT
yantal,65.95,56.8471,105.2542,49,7,3.18,RU
jiangyou,74.1,31.7667,104.7167,93,100,3.18,CN
gornopravdinsk,64.08,60.05,69.9,81,83,6.2,RU
sivaki,55.98,52.6333,126.75,98,100,11.12,RU
erdaojiang,78.03,41.7764,126.0319,61,17,3.36,CN
maldonado,65.23,-34.6667,-54.9167,89,6,4.5,UY
mundwa,84.9,27.0667,73.8167,63,88,7.29,IN
meulaboh,78.51,4.1363,96.1285,78,94,4.12,ID
rumford,74.8,44.5537,-70.5509,81,100,3.8,US
dingle,85.86,10.9995,122.6711,70,100,8.48,PH
oulainen,59.27,64.2667,24.8,68,100,11.27,FI
flinders,60.19,-34.5833,150.8552,70,72,7.0,AU
sabha,88.59,27.0377,14.4283,12,0,11.25,LY
peniche,65.73,39.3558,-9.3811,86,43,16.17,PT
deep river,69.55,46.1001,-77.4995,85,73,5.39,CA
deputatskiy,61.81,69.3,139.9,50,62,5.12,RU
westport,78.21,41.1415,-73.3579,81,1,1.01,US
kodiak,51.6,57.79,-152.4072,95,100,12.75,US
fare,78.42,-16.7,-151.0167,76,93,7.65,PF
gorom-gorom,78.42,14.4439,-0.2361,71,100,15.32,BF
tasiilaq,44.76,65.6145,-37.6368,96,100,10.51,GL
dillon,80.58,34.4166,-79.3712,90,100,4.61,US
mayumba,72.61,-3.432,10.6554,87,100,4.36,GA
bonthe,75.99,7.5264,-12.505,79,17,6.58,SL
pevek,42.15,69.7008,170.3133,67,67,16.58,RU
roebourne,74.46,-20.7833,117.1333,31,52,12.5,AU
saint-joseph,68.36,-21.3667,55.6167,75,22,9.33,RE
fuerte olimpo,75.06,-21.0415,-57.8738,34,3,6.08,PY
north battleford,76.41,52.7834,-108.2847,35,1,10.36,CA
victoria,87.96,22.2855,114.1577,87,100,6.49,HK
alenquer,82.74,-1.9417,-54.7383,60,32,3.76,BR
ancud,43.23,-41.8697,-73.8203,87,9,6.4,CL
anaconda,81.59,46.1285,-112.9423,32,82,8.43,US
hambantota,80.94,6.1241,81.1185,89,75,10.36,LK
areosa,60.33,41.7178,-8.8571,90,0,9.64,PT
conde,71.06,-7.2597,-34.9075,94,75,9.22,BR
nurota,69.89,40.5614,65.6886,20,0,4.52,UZ
kavaratti,81.36,10.5669,72.642,78,100,17.98,IN
claremont,98.08,34.0967,-117.7198,44,1,14.97,US
yeniseysk,66.97,58.4497,92.1703,66,53,1.01,RU
severo-kurilsk,57.0,50.6789,156.125,68,9,7.45,RU
havoysund,63.48,70.9963,24.6622,72,11,4.21,NO
palmer,77.29,42.1584,-72.3287,72,90,3.44,US
olbia,77.05,40.9214,9.4856,50,0,4.61,IT
pidhorodne,67.24,48.5753,35.1068,86,93,13.4,UA
saldanha,41.05,-33.0117,17.9442,72,100,3.47,ZA
odweyne,72.68,9.4092,45.064,49,70,12.53,SO
kruisfontein,56.34,-34.0033,24.7314,30,100,6.33,ZA
sorong,78.85,-0.8833,131.25,85,100,5.21,ID
egvekinot,39.92,66.3167,-179.1667,70,35,16.73,RU
norman wells,53.64,65.282,-126.8329,54,75,11.5,CA
sabzevar,79.48,36.2126,57.6819,21,0,4.59,IR
tautira,84.22,-17.7333,-149.15,77,29,8.19,PF
yulara,60.64,-25.2406,130.9889,31,0,11.5,AU
batsfjord,59.38,70.6345,29.7185,64,100,12.75,NO
mosjoen,59.0,65.836,13.1908,64,80,5.7,NO
benghazi,80.38,32.1167,20.0667,68,0,13.51,LY
bengkulu,78.33,-3.8004,102.2655,85,6,2.73,ID
klaksvik,59.92,62.2266,-6.589,94,100,15.93,FO
springfield,83.98,37.2153,-93.2982,68,1,5.99,US
barrow,39.22,71.2906,-156.7887,80,90,11.5,US
adrar,90.64,20.5022,-10.0711,30,88,11.83,MR
saint-pierre,69.44,-21.3393,55.4781,64,0,5.75,RE
sisimiut,40.66,66.9395,-53.6735,93,100,1.68,GL
leningradskiy,38.88,69.3833,178.4167,76,50,15.55,RU
portland,80.53,45.5234,-122.6762,62,75,1.01,US
vao,67.68,-22.6667,167.4833,64,100,5.57,NC
toftlund,60.33,55.1886,9.0693,94,40,3.44,DK
coihaique,39.15,-45.5752,-72.0662,75,0,6.91,CL
catamarca,65.77,-28.4696,-65.7852,51,0,2.26,AR
vardo,56.48,70.3705,31.1107,72,100,8.84,NO
bend,84.06,44.0582,-121.3153,37,1,3.0,US
bereda,56.91,43.2686,-7.5406,100,68,1.63,ES
angra dos reis,66.16,-23.0067,-44.3181,65,15,5.01,BR
san quintin,70.29,30.4833,-115.95,75,17,9.75,MX
cap malheureux,68.49,-19.9842,57.6142,80,25,14.09,MU
siyabuswa,53.11,-25.1132,29.0445,69,0,3.96,ZA
beringovskiy,43.84,63.05,179.3167,85,100,24.74,RU
dwarka,80.73,22.2394,68.9678,81,100,11.61,IN
caravelas,69.1,-17.7125,-39.2481,74,100,8.12,BR
khash,76.91,28.2211,61.2158,16,0,2.98,IR
houma,86.0,29.5958,-90.7195,81,26,1.01,US
gojra,90.81,31.1487,72.6866,50,0,6.73,PK
airai,68.31,-8.9266,125.4092,38,69,3.53,TL
noumea,75.18,-22.2763,166.4572,63,89,7.94,NC
yichang,84.52,30.7144,111.2847,68,41,0.76,CN
ballitoville,58.24,-29.539,31.2144,87,20,1.14,ZA
henties bay,51.85,-22.116,14.2845,77,0,4.34,NA
francistown,56.41,-21.17,27.5079,43,0,8.08,BW
rincon,81.12,32.296,-81.2354,86,40,5.75,US
unity,75.25,52.4501,-109.1682,26,100,7.7,CA
ribeira grande,69.73,38.5167,-28.7,71,56,11.07,PT
atbasar,60.39,51.8,68.3333,72,66,4.47,KZ
maningrida,78.78,-12.0667,134.2667,42,6,12.66,AU
lincoln,88.18,40.8,-96.667,74,40,9.22,US
high level,59.11,58.5169,-117.136,82,90,21.85,CA
wajid,70.97,3.8093,43.2471,71,100,17.36,SO
necochea,43.03,-38.5473,-58.7368,75,37,7.34,AR
iqaluit,46.13,63.7506,-68.5145,81,75,13.8,CA
kieta,76.95,-6.2167,155.6333,90,100,1.45,PG
port hardy,62.78,50.6996,-127.4199,82,75,3.44,CA
kjollefjord,59.68,70.9457,27.3465,61,15,10.76,NO
sitka,62.49,57.0531,-135.33,77,90,12.66,US
omboue,73.83,-1.5746,9.2618,85,100,8.93,GA
severobaykalsk,58.01,55.65,109.3167,72,100,1.3,RU
nusaybin,85.86,37.0778,41.2178,24,0,5.26,TR
broome,73.38,42.2506,-75.833,90,100,1.01,US
haines junction,71.55,60.7522,-137.5108,56,100,6.91,CA
kisangani,67.3,0.5167,25.2,96,100,1.05,CD
saskylakh,61.88,71.9167,114.0833,54,100,9.62,RU
mao,75.76,39.8885,4.2658,69,0,19.57,ES
manuk mangkaw,80.04,4.8,119.85,80,100,18.01,PH
saint anthony,72.1,45.0205,-93.218,88,90,4.0,US
roald,64.45,62.5833,6.1333,87,40,4.61,NO
semey,62.82,50.4111,80.2275,77,8,4.47,KZ
itarema,80.44,-2.9248,-39.9167,72,97,15.48,BR
kupang,82.98,-10.1667,123.5833,57,20,20.71,ID
avera,82.71,33.194,-82.5271,60,67,0.69,US
olga,69.13,43.7444,135.2892,83,100,10.07,RU
nelson bay,59.0,-32.7167,152.15,94,99,1.99,AU
hobyo,75.58,5.3505,48.5268,83,84,21.88,SO
itapaci,69.31,-14.9508,-49.5494,50,96,5.55,BR
dordrecht,62.53,51.81,4.6736,93,100,11.01,NL
carmen,78.84,18.6333,-91.8333,83,90,5.75,MX
salalah,77.09,17.0151,54.0924,94,90,3.44,OM
port macquarie,62.56,-31.4333,152.9167,62,56,10.29,AU
mahebourg,68.29,-20.4081,57.7,94,75,9.22,MU
port blair,82.51,11.6667,92.75,82,99,13.67,IN
turukhansk,68.47,65.8167,87.9833,55,36,1.72,RU
lorengau,83.05,-2.0226,147.2712,73,88,9.28,PG
hohhot,71.89,40.8106,111.6522,56,40,4.47,CN
changji,79.59,44.0167,87.3167,36,0,0.0,CN
faya,64.51,18.3851,42.4509,62,99,2.89,SA
anadyr,50.5,64.75,177.4833,71,75,8.95,RU
ilulissat,42.82,69.2167,-51.1,70,89,3.44,GL
puerto carreno,76.48,6.189,-67.4859,83,72,4.97,CO
babushkin,55.96,51.7122,105.8647,97,91,11.97,RU
linjiang,79.16,41.8069,126.9078,57,95,2.82,CN
calvinia,55.44,-31.4707,19.776,24,96,7.31,ZA
cherskiy,64.06,68.75,161.3,37,100,6.85,RU
abdanan,84.15,32.9926,47.4198,25,10,7.85,IR
port augusta,60.71,-32.5,137.7667,49,0,8.34,AU
nguru,74.7,12.8791,10.4526,76,100,11.34,NG
snezhnogorsk,44.38,69.1933,33.2531,68,82,7.47,RU
illela,79.74,13.7292,5.2975,59,100,11.79,NG
naze,76.12,28.3667,129.4833,94,100,35.46,JP
half moon bay,90.75,37.4636,-122.4286,72,1,9.22,US
villanueva,80.04,15.3167,-88.0,83,75,2.3,HN
carlagan,87.69,14.975,122.0456,64,90,11.25,PH
kenai,63.03,60.5544,-151.2583,82,75,10.36,US
gebre guracha,49.95,9.8,38.4,89,78,0.36,ET
vila velha,64.35,-20.3297,-40.2925,94,40,4.61,BR
llanelli,61.43,51.682,-4.1619,89,75,32.21,GB
klyuchi,68.77,52.2667,79.1667,47,90,5.61,RU
dryden,66.49,49.7833,-92.7503,72,1,5.75,CA
hami,81.3,42.8,93.45,18,0,12.15,CN
kirakira,84.27,-10.4544,161.9205,69,31,7.54,SB
margate,58.91,51.3813,1.3862,80,32,1.99,GB
la ronge,73.62,55.1001,-105.2842,49,75,1.14,CA
hwange,60.26,-18.3693,26.5019,32,0,2.98,ZW
manta,71.38,-0.95,-80.7333,83,75,10.36,EC
salinas,85.96,36.6777,-121.6555,73,90,8.05,US
qasigiannguit,43.05,68.8193,-51.1922,84,100,2.64,GL
lac du bonnet,77.34,50.2536,-96.0612,48,0,10.58,CA
iskateley,46.67,67.6803,53.1512,80,96,5.91,RU
okhotsk,69.19,59.3833,143.3,49,3,7.05,RU
harper,75.99,4.375,-7.7169,81,41,8.79,LR
san patricio,87.69,28.017,-97.5169,70,0,14.94,US
tabas,84.83,33.5959,56.9244,16,0,4.65,IR
shelabolikha,65.66,53.4131,82.6167,71,13,2.42,RU
nyurba,69.53,63.2842,118.3319,71,100,9.55,RU
prince rupert,62.29,54.3161,-130.3201,88,90,6.91,CA
shu,72.23,43.5983,73.7614,33,28,5.08,KZ
berdigestyakh,66.47,62.0989,126.6992,50,36,11.77,RU
shahr-e babak,75.31,30.1165,55.1186,24,25,4.03,IR
taltal,53.74,-25.4,-70.4833,82,88,2.39,CL
nioro,75.25,13.35,-15.75,92,63,5.01,GM
dongsheng,67.66,39.8161,109.9776,58,100,6.82,CN
torbay,66.67,47.6666,-52.7314,88,40,20.71,CA
souillac,68.38,-20.5167,57.5167,94,75,9.22,MU
bagdarin,56.95,54.4333,113.6,96,100,4.74,RU
toora-khem,57.02,52.4675,96.11,90,94,1.7,RU
khatanga,59.07,71.9667,102.5,54,62,11.95,RU
tazovskiy,59.4,67.4667,78.7,75,10,4.52,RU
longford,58.15,53.7333,-7.8,96,100,13.27,IE
kloulklubed,77.5,7.0419,134.2556,84,100,1.57,PW
bangolo,68.59,7.0069,-7.475,83,48,2.84,CI
narsaq,48.42,60.9167,-46.05,96,100,6.8,GL
kapuskasing,59.09,49.4169,-82.4331,72,20,2.3,CA
melito di porto salvo,80.53,37.9222,15.7714,69,0,1.14,IT
kilindoni,75.27,-7.9139,39.6668,74,48,9.44,TZ
yar-sale,59.11,66.8333,70.8333,77,65,12.66,RU
ornskoldsvik,61.75,63.2909,18.7153,77,90,9.22,SE
alice springs,60.35,-23.7,133.8833,29,0,10.36,AU
cape coast,74.95,5.1053,-1.2466,92,100,11.88,GH
neuquen,49.06,-38.9516,-68.0591,30,96,5.95,AR
krasnofarfornyy,59.23,59.1364,31.8502,99,34,4.41,RU
linxia,59.07,35.6003,103.2064,72,100,5.1,CN
rantauprapat,77.13,2.1,99.8333,93,100,1.95,ID
ponta do sol,74.01,32.6667,-17.1,88,59,5.28,PT
skjervoy,56.03,70.0311,20.9714,71,100,7.81,NO
san vicente,60.6,-26.6167,-54.1333,64,0,3.09,AR
muros,60.24,42.7762,-9.0603,94,13,5.3,ES
pochutla,81.45,15.7432,-96.4661,85,90,2.75,MX
kovur,86.49,14.4833,79.9833,58,76,5.99,IN
nago,82.83,26.5881,127.9761,93,100,26.8,JP
podolsk,70.02,55.4242,37.5547,64,0,4.47,RU
belmonte,69.19,-15.8631,-38.8828,85,91,10.63,BR
ocos,82.58,14.5094,-92.1933,69,76,3.13,GT
esperance,57.04,-33.8667,121.9,72,100,17.25,AU
wanning,87.66,18.8003,110.3967,69,100,11.81,CN
sakakah,81.97,29.9697,40.2064,12,0,7.25,SA
semnan,80.96,35.5729,53.3971,23,0,5.73,IR
najran,81.25,17.4924,44.1277,41,76,7.0,SA
roma,75.34,43.2128,-75.4557,79,1,3.44,US
thompson,77.16,55.7435,-97.8558,36,75,10.36,CA
manokwari,82.47,-0.8667,134.0833,70,92,4.38,ID
waipawa,47.03,-41.4122,175.5153,90,100,11.63,NZ
tsevie,76.08,6.4261,1.2133,92,100,5.3,TG
jalu,81.75,29.0331,21.5482,38,0,9.06,LY
tuktoyaktuk,44.6,69.4541,-133.0374,81,90,13.8,CA
sosnovo-ozerskoye,55.67,52.5249,111.5418,92,100,8.61,RU
kirkland lake,59.29,48.1446,-80.0377,72,3,4.72,CA
acapulco,82.22,16.8634,-99.8901,78,90,6.91,MX
bundaberg,70.09,-24.85,152.35,35,0,8.05,AU
pisco,61.02,-13.7,-76.2167,82,0,14.97,PE
padang,82.69,-0.9492,100.3543,77,96,0.94,ID
valparaiso,52.72,-33.0393,-71.6273,76,75,2.3,CL
methoni,79.21,36.8197,21.7049,63,0,3.33,GR
petropavlovskoye,69.33,52.0712,84.107,54,41,3.15,RU
yinchuan,68.81,38.4681,106.2731,71,100,6.17,CN
rawlins,75.09,41.7911,-107.2387,20,20,11.5,US
kalmunai,80.2,7.4167,81.8167,80,96,6.58,LK
lubango,57.45,-14.9172,13.4925,40,7,4.29,AO
khandyga,77.04,62.6667,135.6,31,9,2.86,RU
chulman,58.28,56.8479,124.9104,77,88,8.99,RU
laguna,96.64,38.421,-121.4238,26,1,3.0,US
kathu,84.02,7.9178,98.3332,76,62,9.28,TH
letlhakane,55.67,-21.4167,25.5833,41,1,7.85,BW
enid,90.01,36.3956,-97.8784,54,1,5.99,US
jamame,73.54,0.0722,42.7506,85,82,8.93,SO
calama,48.69,-22.4667,-68.9333,13,0,12.66,CL
ternate,80.28,0.8,127.4,79,100,7.07,ID
zhengjiatun,84.18,43.5064,123.5064,53,0,8.03,CN
swellendam,50.38,-34.0226,20.4417,69,100,0.25,ZA
robertsport,77.54,6.7533,-11.3686,77,23,8.97,LR
mehamn,61.56,71.0357,27.8492,58,30,10.47,NO
lakhipur,77.45,26.0299,90.3041,96,100,0.49,IN
goderich,74.03,43.7501,-81.7165,83,100,3.44,CA
geraldton,66.61,-28.7667,114.6,88,90,12.66,AU
sao jose da coroa grande,73.8,-8.8978,-35.1478,75,92,14.99,BR
namtsy,68.11,62.7161,129.6658,30,0,15.59,RU
guanica,81.21,17.9716,-66.908,86,0,3.27,PR
port elizabeth,50.29,-33.918,25.5701,100,83,2.3,ZA
konza,58.64,-1.7426,37.1294,95,49,1.19,KE
warrnambool,50.81,-38.3833,142.4833,64,100,7.4,AU
palampur,74.86,32.1167,76.5333,71,18,0.63,IN
mbuji-mayi,70.56,-6.15,23.6,34,78,3.02,CD
blythe,110.03,33.6103,-114.5964,15,0,14.12,US
yaan,70.9,7.3833,8.5667,97,98,6.4,NG
shimoda,77.36,34.6667,138.95,81,100,4.9,JP
touros,74.3,-5.1989,-35.4608,83,21,17.83,BR
mizdah,77.65,31.4451,12.9801,53,0,5.7,LY
honiara,85.15,-9.4333,159.95,67,52,3.56,SB
vigrestad,60.01,58.5667,5.7,79,41,15.26,NO
sturgeon bay,70.21,44.8342,-87.377,100,90,8.05,US
manaure,82.04,11.7751,-72.4445,74,24,17.0,CO
la paz,42.78,-16.5,-68.15,52,20,8.05,BO
urubicha,71.87,-15.3833,-62.95,48,0,1.9,BO
centralia,71.65,46.7162,-122.9543,74,90,6.91,US
vostok,54.46,46.4856,135.8833,98,100,6.08,RU
chapais,53.38,49.7834,-74.8492,65,9,3.76,CA
talcahuano,46.08,-36.7167,-73.1167,81,0,5.75,CL
maceio,71.04,-9.6658,-35.7353,88,75,6.91,BR
kholodnyy,66.45,62.7167,147.95,54,33,6.15,RU
dubrovnik,73.04,42.6481,18.0922,60,0,4.61,HR
dayong,85.68,25.0209,118.2898,73,99,2.15,CN
george,54.95,-33.963,22.4617,54,0,3.44,ZA
hualmay,62.8,-11.0964,-77.6139,84,41,11.5,PE
nemuro,63.03,43.3236,145.575,96,100,19.35,JP
la ciotat,72.81,43.1748,5.6045,75,100,15.08,FR
soyo,72.01,-6.1349,12.3689,81,78,5.32,AO
tuatapere,39.81,-46.1333,167.6833,96,100,4.81,NZ
marzuq,82.45,14.4,46.4667,35,100,5.53,YE
silifke,79.61,36.3778,33.9344,52,0,10.78,TR
dawlatabad,84.45,36.4141,64.9053,18,0,4.92,AF
almaznyy,73.54,48.0448,40.045,40,100,9.13,RU
suining,79.34,30.508,105.5733,88,100,3.6,CN
antofagasta,58.28,-23.65,-70.4,84,61,5.75,CL
bhag,93.69,29.0415,67.8239,41,0,8.79,PK
yurginskoye,55.96,56.8189,67.3921,87,99,6.08,RU
slavsk,56.7,55.0425,21.677,94,59,6.87,RU
guerrero negro,72.64,27.9769,-114.0611,80,12,15.86,MX
huarmey,63.48,-10.0681,-78.1522,84,51,11.1,PE
rio branco do sul,58.71,-25.19,-49.3142,97,92,2.28,BR
talnakh,67.62,69.4865,88.3972,34,8,2.95,RU
ascoli piceno,82.44,42.8548,13.5749,54,2,8.23,IT
sal rei,77.56,16.1833,-22.9167,88,46,10.67,CV
mangai,69.6,-4.05,19.5333,84,97,2.89,CD
champerico,81.36,14.3,-91.9167,70,95,2.28,GT
bilibino,62.33,68.0546,166.4372,40,46,15.1,RU
flin flon,64.92,54.7682,-101.865,94,98,2.84,CA
evensk,63.61,61.95,159.2333,54,85,6.96,RU
fort nelson,56.79,58.8053,-122.7002,77,90,9.22,CA
los llanos de aridane,69.55,28.6585,-17.9182,93,0,9.22,ES
uyuni,43.11,-20.4597,-66.825,17,1,7.56,BO
kawalu,82.11,-7.3817,108.2082,69,28,2.8,ID
victor harbor,61.72,-35.5667,138.6167,59,96,6.76,AU
yangjiang,85.98,21.85,111.9667,78,76,5.88,CN
waw,68.18,7.7029,27.9953,98,100,3.74,SS
zabid,87.3,14.1951,43.3152,65,99,6.67,YE
stromness,55.65,58.965,-3.296,92,14,15.5,GB
filingue,83.07,14.3521,3.3168,65,100,8.3,NE
qaqortoq,48.7,60.7167,-46.0333,95,100,21.27,GL
sarangani,79.75,5.4033,125.4636,79,100,6.6,PH
port arthur,82.62,38.8,121.2667,66,0,3.09,CN
yakeshi,74.53,49.2833,120.7333,71,87,14.09,CN
coffs harbour,68.27,-30.3,153.1333,69,40,12.66,AU
launceston,48.79,-41.45,147.1667,76,90,1.99,AU
alirajpur,76.77,22.3031,74.3546,87,100,10.4,IN
lagoa,68.81,39.05,-27.9833,68,99,9.15,PT
bershet,47.46,57.7309,56.3783,86,2,6.44,RU
santa catarina de tepehuanes,66.65,25.35,-105.7333,84,100,5.84,MX
hirara,84.47,24.8,125.2833,84,75,16.11,JP
marsh harbour,83.46,26.5412,-77.0636,72,4,8.32,BS
remanso,70.7,-9.6179,-42.0831,69,3,13.27,BR
taoudenni,99.48,22.6783,-3.9836,10,2,11.74,ML
brewster,77.25,41.3973,-73.6171,82,1,0.0,US
morristown,71.74,36.214,-83.2949,70,37,1.99,US
urumqi,76.15,43.801,87.6005,36,0,0.0,CN
konstantinovka,66.31,49.6167,127.9833,89,100,11.56,RU
peque,66.2,7.0212,-75.9093,98,100,1.05,CO
platonovka,66.4,52.7106,41.952,37,91,9.55,RU
sampit,83.39,-2.5333,112.95,81,57,3.09,ID
rio grande,59.81,-32.035,-52.0986,87,3,10.69,BR
kazachka,64.99,53.3644,38.0694,69,99,2.06,RU
lanzhou,70.88,36.0564,103.7922,55,100,6.85,CN
bima,88.18,-8.4667,118.7167,52,58,4.68,ID
mezhdurechensk,67.87,53.6942,88.0603,65,45,2.13,RU
thai binh,89.6,20.45,106.3333,63,91,4.88,VN
lata,60.82,40.1629,-8.3327,98,24,2.59,PT
camacupa,54.16,-12.0167,17.4833,23,7,4.79,AO
ukiah,96.69,39.1502,-123.2078,23,1,11.5,US
kurilsk,59.85,45.2333,147.8833,80,100,10.56,RU
hamilton,80.1,39.1834,-84.5333,68,1,0.0,US
riyadh,89.74,24.6877,46.7219,16,9,5.5,SA
luderitz,59.77,-26.6481,15.1594,47,13,4.43,NA
glarus,59.88,47.0406,9.068,63,100,2.51,CH
wagar,81.63,16.1525,36.2032,70,99,13.65,SD
dunedin,45.81,-45.8742,170.5036,59,91,11.05,NZ
chiradzulu,53.73,-15.6746,35.1407,78,0,3.56,MW
ankola,78.8,14.6667,74.3,86,91,2.24,IN
bathsheba,79.41,13.2167,-59.5167,89,40,8.05,BB
kingisepp,55.81,59.3733,28.6134,98,23,5.01,RU
mangrol,81.48,21.1167,70.1167,78,100,9.01,IN
cabra,72.84,37.4725,-4.4421,64,0,2.57,ES
kununurra,76.98,-15.7667,128.7333,19,1,11.5,AU
saint-augustin,63.61,51.226,-58.6502,95,100,4.03,CA
tailai,80.04,46.3833,123.4,61,33,2.35,CN
chuchkovo,65.23,54.2693,41.4465,46,100,8.3,RU
alta floresta,74.73,-9.8756,-56.0861,38,12,2.08,BR
mareeba,72.45,-17.0,145.4333,72,68,8.39,AU
nicoya,72.95,10.1483,-85.452,91,100,1.83,CR
lamar,86.16,33.6668,-95.5836,62,1,10.36,US
mnogovershinnyy,58.1,53.9353,139.9242,55,29,7.72,RU
uzhur,64.99,55.3036,89.8339,81,100,3.83,RU
losinyy,55.15,57.1386,61.0666,76,100,9.73,RU
paramonga,63.48,-10.6667,-77.8333,82,83,10.45,PE
bac lieu,86.81,9.285,105.7244,67,99,13.98,VN
selma,101.03,36.5708,-119.6121,24,1,5.75,US
buala,82.98,-8.145,159.5921,70,86,4.23,SB
sakaiminato,87.78,35.55,133.2333,74,75,6.91,JP
marau,57.87,-28.4492,-52.2,86,0,5.41,BR
kulu,65.71,39.0951,33.0799,65,29,6.26,TR
krasnozerskoye,71.29,53.9828,79.2374,54,97,4.09,RU
kangaatsiaq,40.87,68.3065,-53.4641,90,100,6.22,GL
lisakovsk,58.05,52.5369,62.4936,66,7,11.25,KZ
muborak,86.68,39.2553,65.1528,18,0,9.91,UZ
atambua,80.82,-9.1061,124.8925,43,95,1.57,ID
salem,79.0,11.65,78.1667,83,40,0.0,IN
shingu,92.39,33.7333,135.9833,53,8,12.1,JP
broken hill,55.11,-31.95,141.4333,50,75,9.22,AU
muzhi,60.19,65.3667,64.6667,78,100,12.33,RU
chachapoyas,53.82,-6.2317,-77.869,91,70,2.89,PE
tilichiki,58.95,60.4667,166.1,47,37,10.74,RU
hervey bay,69.91,-25.2986,152.8535,50,0,6.2,AU
abbeville,62.56,50.1,1.8333,91,42,15.28,FR
inirida,72.12,3.8653,-67.9239,96,83,1.28,CO
inhambane,66.06,-23.865,35.3833,85,23,5.68,MZ
lexington,74.95,37.9887,-84.4777,74,1,4.61,US
abu road,79.38,24.4833,72.7833,84,48,6.51,IN
ust-kuyga,74.1,70.0167,135.6,31,64,3.31,RU
ulladulla,59.9,-35.35,150.4667,48,52,7.45,AU
marondera,44.29,-18.1853,31.5519,72,0,3.94,ZW
itoman,82.78,26.1247,127.6694,96,75,24.16,JP
xanxere,62.6,-26.8769,-52.4042,66,95,4.25,BR
upington,50.38,-28.4478,21.2561,22,0,6.91,ZA
keita,78.6,14.7551,5.7749,68,100,15.77,NE
bojnurd,64.35,37.4747,57.329,25,0,0.0,IR
lithakia,67.37,37.7167,20.8333,70,0,5.55,GR
mocuba,61.75,-16.8392,36.9856,97,2,1.99,MZ
loreto,69.4,22.2667,-101.9667,49,60,16.8,MX
cabedelo,72.27,-6.9811,-34.8339,82,82,18.81,BR
uthal,81.09,25.8072,66.6219,75,79,5.48,PK
fairbanks,62.56,64.8378,-147.7164,83,90,3.44,US
regina,86.0,50.4501,-104.6178,43,75,4.61,CA
charters towers,73.85,-20.1,146.2667,31,0,9.98,AU
amapa,73.54,1.0,-52.0,87,56,3.83,BR
verkhnevilyuysk,70.95,63.4453,120.3167,54,100,10.22,RU
udalguri,82.18,26.7667,92.1333,87,93,6.24,IN
baykit,69.57,61.67,96.37,41,41,3.09,RU
